City_ID,City,Lat,Lng,Max Temp,Humidity,Cloudiness,Wind Speed,Country,Date
0,afaahiti,-17.75,-149.2833,84.07,83,85,24.09,PF,1702239097
1,puerto natales,-51.7236,-72.4875,54.05,58,75,13.8,CL,1702239098
2,lihue,21.9789,-159.3672,79.84,78,75,9.22,US,1702239098
3,alice springs,-23.7,133.8833,51.35,87,1,8.05,AU,1702239098
4,puerto ayora,-0.7393,-90.3518,84.16,76,31,9.69,EC,1702239067
5,tweed heads,-28.1817,153.547,77.0,88,40,5.75,AU,1702239098
6,bulawayo,-20.15,28.5833,68.25,79,71,13.31,ZW,1702239098
7,iqaluit,63.7506,-68.5145,22.69,79,100,10.0,CA,1702239098
8,prymors'k,46.7348,36.3443,39.13,91,100,17.4,UA,1702239098
9,lebu,-37.6167,-73.65,59.54,74,99,20.6,CL,1702239098
10,mahina,-17.5065,-149.489,85.77,70,40,4.61,PF,1702239099
11,fale old settlement,-9.3852,-171.2468,81.91,83,100,9.78,TK,1702239099
12,chibuto,-24.6867,33.5306,76.77,85,71,9.17,MZ,1702239099
13,margaret river,-33.95,115.0667,56.17,56,0,13.2,AU,1702239099
14,port alfred,-33.5906,26.891,63.18,91,12,1.01,ZA,1702239099
15,siniscola,40.5719,9.6922,56.75,74,38,9.69,IT,1702239099
16,akrehamn,59.2667,5.1833,41.41,52,75,13.8,NO,1702239099
17,yuzhno-kurilsk,44.0306,145.8556,33.37,76,100,13.91,RU,1702239099
18,blackmans bay,-43.0167,147.3167,55.72,71,51,1.01,AU,1702239100
19,georgetown,5.4112,100.3354,80.53,89,20,3.44,MY,1702239100
20,guajara mirim,-10.7828,-65.3394,90.57,54,95,1.7,BR,1702238910
21,takoradi,4.8845,-1.7554,81.09,79,81,7.61,GH,1702238956
22,ain temouchent,35.2975,-1.1404,59.04,57,13,1.52,DZ,1702239100
23,lompoc,34.6391,-120.4579,74.7,37,0,6.91,US,1702238746
24,nikolayevsk-on-amure,53.1406,140.73,-4.77,88,100,10.96,RU,1702239100
25,kerikeri,-35.2268,173.9474,65.91,86,100,4.59,NZ,1702239100
26,stanley,54.868,-1.6985,42.28,96,40,2.3,GB,1702239100
27,wailua homesteads,22.0669,-159.378,79.23,83,75,9.22,US,1702239100
28,remire-montjoly,4.9167,-52.2667,87.84,66,40,9.22,GF,1702239101
29,monroeville,40.4212,-79.7881,40.89,77,100,4.61,US,1702239004
30,santa ana,33.7456,-117.8678,78.44,19,20,3.44,US,1702238849
31,ilulissat,69.2167,-51.1,26.62,80,100,14.97,GL,1702239101
32,bethel,41.3712,-73.414,57.9,90,100,5.75,US,1702239101
33,bilibino,68.0546,166.4372,-14.37,98,54,4.34,RU,1702239101
34,nova sintra,14.8667,-24.7167,73.54,74,100,9.86,CV,1702239101
35,codrington,-38.2667,141.9667,59.13,85,100,20.98,AU,1702239101
36,albany,42.6001,-73.9662,54.95,91,100,1.99,US,1702239101
37,sitka,57.0531,-135.33,37.29,87,40,6.91,US,1702239101
38,nushki,29.5542,66.0215,51.93,27,0,0.76,PK,1702239102
39,kuqa,41.7278,82.9364,27.95,56,42,2.89,CN,1702239102
40,mundgod,14.9667,75.0333,75.09,62,95,5.5,IN,1702239102
41,mar del plata,-38.0023,-57.5575,78.84,77,5,1.99,AR,1702239102
42,talnakh,69.4865,88.3972,-18.8,99,100,9.1,RU,1702239102
43,edinburgh of the seven seas,-37.0676,-12.3116,56.28,69,96,13.85,SH,1702239102
44,hawaiian paradise park,19.5933,-154.9731,78.03,95,100,1.01,US,1702239103
45,gaoyou,32.7858,119.4278,48.02,92,100,14.76,CN,1702239103
46,borba,-4.3878,-59.5939,84.42,72,100,2.33,BR,1702239103
47,port-aux-francais,-49.35,70.2167,38.14,77,48,22.21,TF,1702239103
48,grytviken,-54.2811,-36.5092,42.67,83,100,14.27,GS,1702239103
49,adamstown,-25.066,-130.1015,69.62,59,0,8.57,PN,1702239103
50,happy valley-goose bay,53.3168,-60.3315,34.32,83,100,13.71,CA,1702238940
51,ushuaia,-54.8,-68.3,51.42,58,92,3.04,AR,1702238965
52,jamestown,42.097,-79.2353,39.02,79,100,8.05,US,1702239102
53,saint croix,17.7397,-64.7388,84.65,82,40,19.57,VI,1702239104
54,rawson,-43.3002,-65.1023,81.86,26,6,13.62,AR,1702238963
55,shivpuri,25.4333,77.65,59.4,49,0,0.87,IN,1702239104
56,pariaman,-0.619,100.12,77.05,90,99,3.78,ID,1702239104
57,isafjordur,66.0755,-23.124,26.78,83,100,6.53,IS,1702239104
58,invercargill,-46.4,168.35,52.72,52,14,6.55,NZ,1702238814
59,guanica,17.9716,-66.908,85.05,48,17,16.73,PR,1702239104
60,xichang,27.8964,102.2634,47.41,88,3,0.83,CN,1702239104
61,egilsstadir,65.2653,-14.3948,28.31,100,100,2.3,IS,1702239105
62,tiksi,71.6872,128.8694,-11.13,100,100,4.43,RU,1702239105
63,karratha,-20.7377,116.8463,79.12,18,6,13.76,AU,1702239105
64,peacehaven,50.7927,-0.0065,52.48,77,0,15.99,GB,1702239105
65,st. paul,44.9444,-93.0933,25.92,83,100,8.05,US,1702238912
66,castelli,-25.9468,-60.6195,90.48,30,1,9.55,AR,1702239105
67,luganville,-15.5333,167.1667,77.68,80,100,11.25,VU,1702239105
68,alofi,-19.0595,-169.9187,78.69,89,100,4.61,NU,1702239105
69,st. john's,47.5649,-52.7093,34.97,83,8,2.84,CA,1702239088
70,qaqortoq,60.7167,-46.0333,19.72,75,100,1.99,GL,1702239105
71,manokwari,-0.8667,134.0833,78.33,81,100,7.34,ID,1702239106
72,sao jose da coroa grande,-8.8978,-35.1478,81.03,65,74,7.61,BR,1702239101
73,west island,-12.1568,96.8225,78.78,83,25,10.36,CC,1702239106
74,macenta,8.5435,-9.471,71.44,41,100,2.75,GN,1702239106
75,marco island,25.9363,-81.7157,83.05,69,0,13.8,US,1702239106
76,waitangi,-43.9535,-176.5597,55.81,79,2,1.99,NZ,1702239106
77,khobi,42.3156,41.8987,51.28,92,100,3.49,GE,1702239106
78,ore,6.7457,4.8775,77.41,88,10,2.19,NG,1702239106
79,brookhaven,31.5791,-90.4407,54.25,42,0,13.76,US,1702239107
80,prince rupert,54.3161,-130.3201,42.49,81,69,12.66,CA,1702239107
81,el granada,37.5027,-122.4694,60.82,61,0,3.44,US,1702239107
82,nahiyat ash shinafiyah,31.5874,44.6602,68.72,37,100,5.93,IQ,1702239107
83,thompson,55.7435,-97.8558,5.2,82,52,2.44,CA,1702239107
84,lerwick,60.1545,-1.1494,44.6,70,100,21.12,GB,1702239107
85,umm kaddadah,13.6017,26.6876,75.09,14,100,5.06,SD,1702239107
86,qashyr,53.0675,76.1036,-10.34,95,94,5.21,KZ,1702239107
87,itoman,26.1247,127.6694,74.17,88,20,4.61,JP,1702239107
88,revda,56.801,59.9303,-20.11,100,100,4.05,RU,1702239108
89,yellowknife,62.456,-114.3525,11.41,98,100,15.01,CA,1702239108
90,san patricio,28.017,-97.5169,63.16,19,0,14.12,US,1702239108
91,hobyo,5.3505,48.5268,80.28,80,34,16.75,SO,1702239108
92,kone,-21.0595,164.8658,76.41,62,97,7.4,NC,1702239108
93,capitan bado,-23.2667,-55.5333,69.46,94,100,2.26,PY,1702239109
94,plastun,44.7561,136.2939,2.37,55,0,8.34,RU,1702239109
95,funafuti,-8.5243,179.1942,87.8,74,75,14.97,TV,1702239109
96,badger,64.8,-147.5333,-5.19,70,75,5.75,US,1702239109
97,hermanus,-34.4187,19.2345,64.22,73,0,12.3,ZA,1702239109
98,arica,-18.475,-70.3042,81.95,68,100,6.73,CL,1702238828
99,pitimbu,-7.4706,-34.8086,82.99,62,9,6.67,BR,1702239109
100,beloyarskiy,63.7119,66.6722,-31.0,100,29,3.0,RU,1702239109
101,ola,59.5833,151.2833,21.97,79,100,23.6,RU,1702239110
102,port mathurin,-19.6833,63.4167,79.27,76,74,7.99,MU,1702239110
103,alaghsas,17.0187,8.0168,66.61,21,0,16.71,NE,1702239110
104,torghay,49.6339,63.4981,-4.27,80,7,13.78,KZ,1702239110
105,bemidji,47.4736,-94.8803,22.89,92,100,4.61,US,1702239028
106,mirny,62.5353,113.9611,-20.74,96,100,6.96,RU,1702239110
107,kingston,17.997,-76.7936,89.24,67,9,9.22,JM,1702238887
108,nar'yan-mar,67.6713,53.087,-8.9,91,98,11.01,RU,1702239110
109,santa elena de uairen,4.6167,-61.1333,83.17,45,85,2.68,VE,1702239110
110,fort bragg,35.139,-79.006,71.91,86,100,10.36,US,1702239111
111,sao felix do xingu,-6.6447,-51.995,98.71,31,88,4.18,BR,1702239111
112,avarua,-21.2078,-159.775,78.85,83,75,28.77,CK,1702239111
113,chonchi,-42.6128,-73.8092,65.41,60,99,2.46,CL,1702239111
114,tazovsky,67.4667,78.7,-19.8,94,100,10.16,RU,1702239111
115,la ronge,55.1001,-105.2842,22.8,79,81,7.02,CA,1702239111
116,lewisburg,35.4492,-86.7889,47.19,55,20,6.91,US,1702239111
117,maracaju,-21.6144,-55.1683,71.98,95,100,20.24,BR,1702239031
118,mountain home,43.133,-115.6912,42.15,55,100,12.66,US,1702239111
119,hithadhoo,-0.6,73.0833,81.95,74,100,3.31,MV,1702239112
120,laojunmiao,39.8333,97.7333,25.0,52,99,3.94,CN,1702239112
121,zharkent,44.1628,80.0,23.68,75,100,1.9,KZ,1702239112
122,saipan,15.1355,145.701,79.5,89,40,9.22,MP,1702239112
123,college,64.8569,-147.8028,-5.1,77,75,5.75,US,1702239112
124,rawlins,41.7911,-107.2387,30.09,59,20,18.41,US,1702239112
125,taltal,-25.4,-70.4833,65.91,71,24,3.33,CL,1702238960
126,basciftlik,40.5469,37.1692,37.02,73,100,6.49,TR,1702239112
127,midvagur,62.0511,-7.1939,43.63,87,100,10.36,FO,1702239113
128,udachny,66.4167,112.4,-19.55,82,100,12.06,RU,1702239113
129,den burg,53.0542,4.7972,51.01,94,75,18.41,NL,1702239113
130,matoury,4.8483,-52.3317,87.76,66,40,9.22,GF,1702239113
131,haiku-pauwela,20.9219,-156.3051,82.42,68,20,11.99,US,1702239113
132,gouyave,12.1646,-61.7296,80.98,78,11,15.64,GD,1702239113
133,pasni,25.2631,63.471,73.11,38,0,8.25,PK,1702239113
134,flin flon,54.7682,-101.865,17.44,93,100,3.44,CA,1702239113
135,makaha,21.4694,-158.2175,84.11,65,75,3.44,US,1702239113
136,hasaki,35.7333,140.8333,54.28,70,100,4.43,JP,1702239114
137,dolores,-36.3132,-57.6792,78.35,48,1,4.18,AR,1702238961
138,teruel,40.6667,-0.6667,47.7,80,52,6.02,ES,1702239114
139,ketchikan,55.3422,-131.6461,40.33,87,0,3.44,US,1702239114
140,sola,-13.8833,167.55,79.66,79,100,19.98,VU,1702239114
141,ust-nera,64.5667,143.2,-1.84,98,100,9.01,RU,1702239114
142,kudahuvadhoo,2.6708,72.8944,82.96,75,100,6.06,MV,1702239114
143,freetown,8.484,-13.2299,80.71,74,98,5.37,SL,1702239114
144,tlaltenango de sanchez roman,21.7833,-103.3167,73.83,32,4,7.56,MX,1702239114
145,xilin hot,43.9667,116.0333,1.27,81,100,6.53,CN,1702239115
146,rio grande,-32.035,-52.0986,69.94,84,84,18.5,BR,1702238826
147,lazaro cardenas,17.9583,-102.2,83.86,56,100,5.88,MX,1702239115
148,iskateley,67.6803,53.1512,-8.99,91,98,11.01,RU,1702239115
149,boa vista,2.8197,-60.6733,87.78,58,75,8.05,BR,1702238926
150,sidareja,-7.4846,108.7923,77.05,88,100,1.97,ID,1702239115
151,vilyuchinsk,52.9306,158.4028,35.87,99,100,18.52,RU,1702239115
152,papatowai,-46.5619,169.4708,53.62,52,18,5.73,NZ,1702239115
153,mirnyy,62.5353,113.9611,-20.74,96,100,6.96,RU,1702239115
154,el charco,2.4769,-78.1105,83.5,81,100,8.21,CO,1702239115
155,port augusta,-32.5,137.7667,63.84,84,99,9.22,AU,1702239116
156,lensk,60.7253,114.9278,-16.71,94,100,9.44,RU,1702239116
157,kailua-kona,19.6406,-155.9956,83.28,68,0,9.22,US,1702239116
158,klyuchi,52.2667,79.1667,-5.91,85,21,5.23,RU,1702239116
159,inirida,3.8653,-67.9239,89.87,53,30,1.03,CO,1702239116
160,pogranichnyy,44.4064,131.3769,1.67,66,13,4.23,RU,1702239116
161,ephraim,39.3597,-111.5863,42.26,46,94,4.54,US,1702239116
162,punta arenas,-53.15,-70.9167,48.31,61,75,13.8,CL,1702238958
163,hammerfest,70.6634,23.6821,23.45,68,0,10.36,NO,1702239116
164,tolanaro,-25.0319,46.9987,76.23,93,57,11.3,MG,1702239117
165,utrik,11.2278,169.8474,81.03,74,30,22.55,MH,1702239117
166,touros,-5.1989,-35.4608,81.46,62,14,12.39,BR,1702239117
167,ribeira grande,38.5167,-28.7,64.8,72,40,21.85,PT,1702239117
168,belyy yar,53.6039,91.3903,-25.71,75,85,0.0,RU,1702239117
169,tubarjal,30.4999,38.216,64.98,50,100,11.1,SA,1702239117
170,mucur,39.0615,34.3829,37.42,72,85,2.57,TR,1702239117
171,kodiak,57.79,-152.4072,36.91,87,100,16.11,US,1702238971
172,balabac,7.9868,117.0645,80.78,79,35,7.92,PH,1702239117
173,carnarvon,-24.8667,113.6333,78.49,25,0,17.92,AU,1702239118
174,prairie view,30.0933,-95.9877,59.86,34,0,14.94,US,1702239118
175,susuman,62.7833,148.1667,-0.02,96,100,5.99,RU,1702239118
176,northam,51.0333,-4.2167,55.65,86,13,33.4,GB,1702239118
177,longyearbyen,78.2186,15.6401,31.84,69,75,16.11,SJ,1702238979
178,aachen,50.7766,6.0834,51.94,84,100,24.81,DE,1702239118
179,zheleznodorozhnyy,55.7503,38.0042,16.32,93,100,11.01,RU,1702239118
180,upington,-28.4478,21.2561,73.78,17,0,5.75,ZA,1702239118
181,rehoboth,-23.3167,17.0833,75.61,22,0,15.21,NA,1702239045
182,berezovyy,51.6667,135.7,-11.4,65,11,8.41,RU,1702239119
183,vila velha,-20.3297,-40.2925,78.75,75,40,11.5,BR,1702239119
184,malango,-2.9627,119.9001,68.31,96,100,2.53,ID,1702239119
185,najaf,31.9985,44.3398,68.09,39,100,6.87,IQ,1702239119
186,teknaf,20.8624,92.3058,66.4,75,63,10.02,BD,1702239119
187,cloverdale,38.8055,-123.0172,59.74,38,100,1.86,US,1702239119
188,sao vicente,-23.9631,-46.3919,76.26,54,100,5.01,BR,1702239119
189,saudarkrokur,65.7461,-19.6394,20.77,79,46,11.05,IS,1702239119
190,hede,33.7681,120.2517,48.2,90,100,17.83,CN,1702239120
191,arquitecto tomas romero pereira,-26.4833,-55.25,77.07,80,80,3.67,PY,1702239120
192,tazacorte,28.629,-17.9293,73.15,49,40,8.01,ES,1702239120
193,al hazm,16.1641,44.7769,61.81,29,27,1.66,YE,1702239120
194,antofagasta,-23.65,-70.4,69.03,63,52,7.23,CL,1702239120
195,tralee,52.2704,-9.7026,49.93,87,51,21.39,IE,1702239120
196,sosnovo-ozerskoye,52.5249,111.5418,-31.61,100,74,1.97,RU,1702239120
197,seven pagodas,12.6264,80.1722,78.85,83,62,10.04,IN,1702239120
198,huinca renanco,-34.8404,-64.3758,92.3,15,21,14.45,AR,1702239120
199,naryn,41.4287,75.9911,15.66,63,97,6.38,KG,1702239121
200,ust'-ilimsk,58.0006,102.6619,-31.56,100,34,1.01,RU,1702239121
201,yorkton,51.2167,-102.4677,22.21,82,96,6.11,CA,1702239121
202,kununurra,-15.7667,128.7333,76.98,83,90,8.05,AU,1702239121
203,guozhen,34.3659,107.359,38.5,97,100,0.63,CN,1702239121
204,puerto armuelles,8.2833,-82.8667,87.78,73,24,7.0,PA,1702239121
205,tshikapa,-6.4167,20.8,71.83,92,100,1.52,CD,1702239121
206,i-n-salah,27.1935,2.4607,60.39,45,12,11.68,DZ,1702239121
207,taoudenni,22.6783,-3.9836,68.41,19,100,15.05,ML,1702239121
208,santa maria,-29.6842,-53.8069,75.29,75,94,4.56,BR,1702239122
209,acapulco de juarez,16.8634,-99.8901,85.82,79,75,8.05,MX,1702239044
210,bestobe,52.4994,73.0975,-13.16,92,99,5.19,KZ,1702239122
211,kharsawan,22.8,85.8333,59.77,49,0,3.62,IN,1702239122
212,cabo san lucas,22.8909,-109.9124,84.61,58,0,4.61,MX,1702238778
213,castillos,-34.1667,-53.8333,69.37,67,21,9.33,UY,1702239122
214,bonthe,7.5264,-12.505,81.25,77,73,7.49,SL,1702239122
215,extrema,-22.8547,-46.3183,74.35,83,61,1.14,BR,1702239122
216,abu jibeha,11.4562,31.2285,80.67,21,6,7.36,SD,1702239123
217,constantia,44.1833,28.65,34.48,84,73,9.91,RO,1702239044
218,bredasdorp,-34.5322,20.0403,62.82,73,0,9.22,ZA,1702239123
219,ouadda,8.0777,22.4007,75.58,38,95,2.08,CF,1702239123
220,fort mcmurray,56.7268,-111.381,29.88,60,98,9.69,CA,1702239080
221,vorgashor,67.5833,63.95,-14.64,100,100,5.64,RU,1702239123
222,mugia,43.1041,-9.2179,64.9,86,100,24.56,ES,1702239123
223,mumbwa,-14.9783,27.0619,73.44,61,99,0.31,ZM,1702239123
224,yoichi,43.2039,140.7703,27.41,76,100,22.35,JP,1702239123
225,ukata,10.8312,5.8249,73.96,13,2,5.39,NG,1702239123
226,tura,25.5198,90.2201,57.2,53,0,3.71,IN,1702239124
227,olonkinbyen,70.9221,-8.7187,21.96,53,23,4.27,SJ,1702239124
228,anadyr,64.75,177.4833,-14.01,75,20,11.18,RU,1702239124
229,santana,-0.0583,-51.1817,87.98,70,40,11.5,BR,1702239018
230,howard springs,-12.497,131.047,82.31,95,69,2.51,AU,1702239124
231,ruma,45.0081,19.8222,37.58,95,84,6.51,RS,1702239124
232,narrabri,-30.3167,149.7833,74.52,58,0,5.01,AU,1702239124
233,fuyang,32.9,115.8167,35.76,89,100,17.52,CN,1702239124
234,jaciara,-15.9653,-54.9683,93.11,39,98,1.97,BR,1702239124
235,lambarene,-0.7001,10.2406,77.07,92,98,4.43,GA,1702239125
236,jodhpur,26.2867,73.03,63.28,29,19,3.74,IN,1702239125
237,campoverde,-8.4753,-74.8058,92.89,57,97,1.92,PE,1702239125
238,edgewater,28.9889,-80.9023,81.01,64,75,13.8,US,1702239125
239,nogliki,51.8333,143.1667,-3.66,86,96,13.0,RU,1702239125
240,vanimo,-2.6741,141.3028,77.52,91,91,6.2,PG,1702239125
241,mochudi,-24.4167,26.15,63.19,69,100,4.34,BW,1702239126
242,masterton,-40.9597,175.6575,59.88,72,1,6.38,NZ,1702239126
243,praia da vitoria,38.7333,-27.0667,64.76,88,100,12.06,PT,1702239126
244,crane,31.3974,-102.3501,50.67,24,4,10.11,US,1702239126
245,hirara,24.8,125.2833,75.42,76,70,12.03,JP,1702239126
246,shakhtersk,48.0625,38.5167,29.66,90,100,13.13,UA,1702239126
247,port douglas,-16.4833,145.4667,74.79,84,59,6.42,AU,1702239127
248,puerto san jose,13.9256,-90.8244,86.04,60,6,7.74,GT,1702239127
249,kalmunai,7.4167,81.8167,77.76,87,78,2.51,LK,1702239127
250,ad dilam,23.9915,47.1627,64.81,16,99,5.32,SA,1702239127
251,markovo,57.3206,107.0881,-35.14,100,63,1.72,RU,1702239127
252,sisimiut,66.9395,-53.6735,24.98,96,100,11.77,GL,1702238884
253,korla,41.7597,86.1469,26.26,59,12,2.57,CN,1702239127
254,gereida,11.2811,25.1414,81.34,14,100,6.82,SD,1702239127
255,dampit,-8.2116,112.7493,71.01,93,93,0.94,ID,1702239128
256,new norfolk,-42.7826,147.0587,56.91,69,79,3.33,AU,1702239128
257,veraval,20.9,70.3667,73.06,47,12,10.27,IN,1702239128
258,al muwayh,22.4333,41.7583,63.81,23,45,13.09,SA,1702239128
259,kribi,2.95,9.9167,80.06,83,84,6.26,CM,1702239128
260,mount pearl,47.5166,-52.7813,34.14,83,7,2.37,CA,1702239128
261,whitehorse,60.7161,-135.0538,2.8,84,71,4.0,CA,1702239128
262,york,40.1254,-77.0,57.11,94,100,0.0,US,1702239129
263,lata,40.1629,-8.3327,61.07,94,23,3.53,PT,1702239129
264,arraial do cabo,-22.9661,-42.0278,76.86,65,75,11.5,BR,1702238869
265,pisco,-13.7,-76.2167,71.65,73,0,6.91,PE,1702239129
266,fort st. john,56.2499,-120.8529,27.32,76,100,4.68,CA,1702239129
267,hami,42.8,93.45,27.54,75,29,4.72,CN,1702239129
268,atafu village,-8.5421,-172.5159,85.14,73,100,13.65,TK,1702239129
269,coahuayana de hidalgo,18.7,-103.6583,88.0,48,100,4.83,MX,1702239129
270,severo-yeniseyskiy,60.3725,93.0408,-37.43,100,64,1.01,RU,1702239129
271,petropavlovsk-kamchatsky,53.0452,158.6483,34.39,95,100,15.01,RU,1702239129
272,tyazhinskiy,56.116,88.524,-28.32,98,27,4.56,RU,1702239130
273,selfoss,63.9331,-20.9971,29.05,78,100,5.26,IS,1702239130
274,bucerias,20.75,-105.3333,82.38,61,40,6.91,MX,1702239130
275,cidreira,-30.1811,-50.2056,68.41,92,94,18.88,BR,1702239130
276,victorica,-36.2151,-65.4359,92.7,11,91,14.45,AR,1702239130
277,pangody,65.85,74.4859,-29.78,98,65,7.85,RU,1702239130
278,tocopilla,-22.092,-70.1979,69.76,67,85,5.48,CL,1702239130
279,westport,41.1415,-73.3579,58.59,94,100,16.11,US,1702239040
280,kuanda,56.3161,116.0806,-33.79,95,55,0.65,RU,1702239131
281,gisborne,-38.6533,178.0042,58.21,80,100,4.65,NZ,1702239131
282,el tigre,8.8875,-64.2454,86.52,51,32,12.41,VE,1702239131
283,awjilah,29.1081,21.2869,60.94,55,52,6.26,LY,1702239131
284,badagry,6.4167,2.8833,80.8,83,3,8.86,NG,1702239131
285,mil'kovo,55.6078,37.7956,16.29,94,100,10.74,RU,1702239131
286,springbok,-29.6643,17.8865,62.74,43,0,5.46,ZA,1702239131
287,algona,43.07,-94.233,35.17,80,0,3.44,US,1702239132
288,keflavik,64.0049,-22.5624,34.23,80,75,9.22,IS,1702239132
289,minbu,20.1833,94.8833,70.83,76,5,4.68,MM,1702239132
290,dunedin,-45.8742,170.5036,47.8,72,10,3.0,NZ,1702239132
291,yamada,39.4667,141.95,40.32,65,100,4.65,JP,1702239133
292,houlton,46.1262,-67.8403,45.01,90,100,4.61,US,1702239133
293,vadso,70.0744,29.7487,10.56,85,75,24.16,NO,1702239133
294,askoy,60.4092,5.226,38.75,86,0,3.44,NO,1702239133
295,ulladulla,-35.35,150.4667,70.77,92,100,4.94,AU,1702239133
296,port elizabeth,-33.918,25.5701,63.32,88,9,3.0,ZA,1702239075
297,mingyue,43.1069,128.9217,7.86,48,100,4.83,CN,1702239133
298,xiaoweizhai,26.1903,107.5125,64.83,93,100,3.42,CN,1702239133
299,agra,27.1833,78.0167,59.58,35,0,4.14,IN,1702239116
300,shanhaiguan,39.9988,119.7564,22.78,20,100,16.33,CN,1702239134
301,buchanan,5.8808,-10.0467,81.03,81,50,8.41,LR,1702239134
302,cruzeiro do sul,-29.5128,-51.9853,77.07,80,89,3.42,BR,1702239134
303,namdrik,5.5994,168.1028,82.17,81,48,13.49,MH,1702239134
304,kulhudhuffushi,6.6221,73.07,82.89,79,92,11.81,MV,1702239134
305,manta,-0.95,-80.7333,83.98,70,40,13.8,EC,1702238886
306,essaouira,31.5125,-9.77,67.5,30,0,3.44,MA,1702239134
307,mwingi,-0.9344,38.0601,70.05,75,100,1.57,KE,1702239134
308,harper,4.375,-7.7169,80.51,81,17,7.4,LR,1702239135
309,nantucket,41.2835,-70.0995,59.14,100,100,14.97,US,1702239052
310,minas de marcona,-15.2119,-75.1103,68.32,60,88,13.04,PE,1702239135
311,okhotsk,59.3833,143.3,21.27,87,100,5.88,RU,1702239135
312,ujae,8.9322,165.7642,81.68,79,99,14.79,MH,1702239135
313,la passe,45.5549,-0.8967,61.03,94,100,22.82,FR,1702239135
314,gunjur,13.2019,-16.7339,78.87,53,0,9.22,GM,1702239136
315,paracuru,-3.41,-39.0306,82.11,64,100,13.56,BR,1702239136
316,baie-comeau,49.2168,-68.1489,35.28,100,100,4.61,CA,1702238852
317,al kharj,24.155,47.3346,64.98,17,100,5.55,SA,1702239136
318,grand baie,-20.0182,57.5802,79.45,80,88,5.01,MU,1702239136
319,kralendijk,12.15,-68.2667,81.39,80,19,21.83,BQ,1702239136
320,tyukalinsk,55.8732,72.1967,-23.62,99,100,5.93,RU,1702239136
321,villa bruzual,9.3328,-69.1208,87.15,56,86,3.85,VE,1702239136
322,kapa'a,22.0752,-159.319,80.58,82,75,9.22,US,1702239137
323,antonio enes,-16.2325,39.9086,81.91,81,11,15.46,MZ,1702239137
324,posto fiscal rolim de moura,-13.0833,-62.2667,94.19,43,76,5.93,BR,1702238837
325,saint-pierre,-21.3393,55.4781,78.48,83,20,5.75,RE,1702239137
326,brisas de zicatela,15.8369,-97.0419,84.72,61,20,11.5,MX,1702239137
327,hanceville,34.0607,-86.7675,53.62,52,8,14.41,US,1702239137
328,sajir,25.1825,44.5996,66.47,23,100,8.97,SA,1702239137
329,qamdo,31.1667,97.2333,15.44,63,8,5.19,CN,1702239137
330,namasuba,0.6894,32.4214,62.15,98,18,1.5,UG,1702239138
331,christiana,-27.914,25.1611,63.84,78,100,11.61,ZA,1702239138
332,timimoun,29.2639,0.231,60.17,33,5,8.95,DZ,1702239138
333,namibe,-15.1961,12.1522,73.4,76,64,5.21,AO,1702239138
334,port lincoln,-34.7333,135.8667,60.58,96,100,14.29,AU,1702239138
335,burang,30.25,81.1667,8.62,50,1,3.27,CN,1702239138
336,inari,68.906,27.0288,3.4,92,93,9.35,FI,1702239139
337,kayangel,8.0823,134.7173,82.72,80,88,14.97,PW,1702239139
338,pionerskiy,54.9508,20.2275,30.04,84,100,17.92,RU,1702239139
339,fedorovka,53.6314,62.7078,-13.61,96,89,9.6,KZ,1702239139
340,prairie du chien,43.0517,-91.1412,30.29,69,100,4.61,US,1702239139
341,malmberget,67.1753,20.6549,10.96,85,100,6.91,SE,1702239139
342,broken hill,-31.95,141.4333,77.92,42,100,1.16,AU,1702239140
343,aasiaat,68.7098,-52.8699,22.26,95,100,17.05,GL,1702239140
344,uturoa,-16.7333,-151.4333,80.28,80,48,22.93,PF,1702239140
345,tambopata,-12.7333,-69.1833,89.49,62,20,5.75,PE,1702239140
346,lubumbashi,-11.6609,27.4794,67.87,76,77,2.73,CD,1702239140
347,quellon,-43.1167,-73.6167,58.71,77,100,7.11,CL,1702239140
348,gizo,-8.103,156.8419,81.25,73,52,4.41,SB,1702239141
349,ishikawa,26.4233,127.8214,74.14,92,40,4.61,JP,1702239141
350,tosontsengel,48.7567,98.2839,-12.57,100,100,1.86,MN,1702239141
351,holma,9.9008,13.0567,74.01,14,0,5.95,NG,1702239141
352,live oak,36.9836,-121.9805,65.1,52,0,3.44,US,1702239141
353,taro,-8.3862,115.28,73.4,95,96,1.77,ID,1702239141
354,enewetak,11.3474,162.3373,81.73,74,100,16.11,MH,1702239142
355,zubova polyana,54.0771,42.8372,12.92,86,100,11.34,RU,1702239142
356,coquimbo,-29.9533,-71.3436,64.04,72,30,4.21,CL,1702238954
357,son la,21.3167,103.9,69.64,81,95,0.76,VN,1702239142
358,abepura,-2.6333,140.5833,77.81,83,40,4.61,ID,1702239142
359,poronaysk,49.2167,143.1167,2.21,83,44,8.48,RU,1702239142
360,shakawe,-18.3667,21.85,70.14,81,99,6.2,BW,1702239142
361,pereslavl'-zalesskiy,56.7393,38.8563,14.9,94,100,10.67,RU,1702239143
362,twon-brass,4.3151,6.2418,82.02,81,70,11.7,NG,1702239143
363,basco,20.4487,121.9702,80.1,80,39,19.28,PH,1702239143
364,menaka,15.9182,2.4022,76.87,13,25,12.26,ML,1702239143
365,troitsko-pechorsk,62.7084,56.1964,-23.31,100,65,1.01,RU,1702239143
366,nizhneudinsk,54.9076,99.0276,-27.06,99,62,2.64,RU,1702239143
367,brazzaville,-4.2658,15.2832,86.31,74,20,4.61,CG,1702239143
368,prince albert,53.2001,-105.7677,26.55,55,11,5.3,CA,1702239144
369,kandahar,31.0,65.75,46.92,32,0,3.6,AF,1702239144
370,campos belos,-13.0367,-46.7717,82.42,53,82,3.74,BR,1702239144
371,kilimatinde,-5.85,34.95,70.43,82,99,4.63,TZ,1702239144
372,rikaze,29.25,88.8833,29.61,40,0,3.58,CN,1702239144
373,holualoa,19.6228,-155.9522,79.56,68,0,9.22,US,1702239144
374,imbituba,-28.24,-48.6703,68.36,94,100,11.81,BR,1702239124
375,al bardiyah,31.7561,25.0865,60.87,59,98,6.96,LY,1702239144
376,hlybokaye,55.1382,27.6879,25.03,94,100,11.25,BY,1702239144
377,tongren,27.7172,109.1853,51.44,94,100,5.28,CN,1702239145
378,sragen,-7.4264,111.0222,75.52,87,100,6.2,ID,1702239145
379,luderitz,-26.6481,15.1594,65.55,67,4,22.48,NA,1702239145
380,mossel bay,-34.1831,22.146,64.04,77,8,12.28,ZA,1702239145
381,chibougamau,49.9168,-74.3659,33.42,93,100,14.97,CA,1702239145
382,dudinka,69.4058,86.1778,-18.38,97,100,11.99,RU,1702239145
383,mejit,10.2753,170.8646,80.78,76,100,23.06,MH,1702239145
384,keelakarai,9.2333,78.7833,79.88,83,100,14.52,IN,1702239145
385,filey,54.21,-0.2892,46.08,91,94,8.99,GB,1702239146
386,taslicay,39.6336,43.375,33.28,89,100,5.21,TR,1702239146
387,fortuna,40.5982,-124.1573,57.97,71,0,3.0,US,1702239146
388,martapura,-3.4167,114.85,77.09,94,40,4.61,ID,1702239146
389,lorengau,-2.0226,147.2712,80.91,85,98,12.41,PG,1702239146
390,tepelene,40.2958,20.0192,43.38,87,75,4.16,AL,1702239147
391,nzega,-2.479,29.5564,58.03,95,99,3.2,RW,1702239147
392,jalalpur pirwala,29.5069,71.2192,62.31,25,0,4.45,PK,1702239147
393,kibara,-2.15,33.45,71.38,79,97,6.06,TZ,1702239147
394,shimoda,34.6667,138.95,54.1,57,100,5.77,JP,1702239147
395,waingapu,-9.6567,120.2641,79.48,85,72,5.53,ID,1702239147
396,macusani,-14.0833,-70.4333,49.15,68,95,10.27,PE,1702239147
397,hamilton,39.1834,-84.5333,38.23,82,100,13.8,US,1702239147
398,rib mountain,44.9128,-89.6754,25.84,77,100,11.5,US,1702239148
399,regina,50.4501,-104.6178,32.04,74,20,8.05,CA,1702238852
400,charcas,23.1333,-101.1167,58.03,68,58,11.3,MX,1702239148
401,salahonda,2.1019,-78.7217,79.74,88,54,15.1,CO,1702239148
402,astrakhan,46.3497,48.0408,24.67,68,40,13.42,RU,1702238914
403,igarka,67.4667,86.5833,-25.73,98,100,5.17,RU,1702239148
404,porto novo,6.4965,2.6036,80.71,81,3,7.67,BJ,1702239149
405,tual,-5.6667,132.75,83.95,75,100,15.77,ID,1702239149
406,sandnessjoen,66.0217,12.6316,32.11,59,75,3.44,NO,1702239149
407,sarikei,2.1167,111.5167,73.42,99,98,1.74,MY,1702239149
408,conduaga,8.862,117.4893,78.51,84,48,4.52,PH,1702239149
409,pimentel,-6.8367,-79.9342,77.29,61,0,23.02,PE,1702238999
410,lesogorsk,56.0458,99.5136,-28.07,100,12,1.99,RU,1702239149
411,saldanha,-33.0117,17.9442,68.05,86,0,19.48,ZA,1702239149
412,mishan,45.55,131.8833,-6.38,84,3,7.43,CN,1702239060
413,calp,38.6447,0.0445,65.03,75,41,8.5,ES,1702239150
414,gadzhiyevo,69.2551,33.3362,11.5,85,99,19.73,RU,1702239150
415,urzhar,47.093,81.6294,17.8,62,100,4.38,KZ,1702239150
416,cockburn town,21.4612,-71.1419,79.59,74,32,25.32,TC,1702239013
417,nahiyat al fuhud,30.9697,46.7228,68.81,37,99,7.18,IQ,1702239150
418,ataq,14.5377,46.8319,61.41,28,6,1.25,YE,1702239150
419,komatipoort,-25.4332,31.9548,73.06,94,100,9.01,ZA,1702239150
420,kattivakkam,13.2167,80.3167,78.89,83,69,10.27,IN,1702239150
421,tsiombe,-25.3,45.4833,76.42,90,32,3.24,MG,1702239150
422,treinta y tres,-33.2333,-54.3833,70.56,77,35,9.55,UY,1702239151
423,birao,10.2849,22.7882,79.16,22,100,4.05,CF,1702239151
424,santyoku,37.4406,129.1708,51.4,90,100,16.06,KR,1702239151
425,oyama,36.3,139.8,56.59,70,100,4.43,JP,1702239151
426,bubaque,11.2833,-15.8333,86.41,45,100,4.61,GW,1702239151
427,ostersund,63.1792,14.6357,25.25,93,100,12.66,SE,1702239152
428,ardakan,32.31,54.0175,55.78,23,100,2.35,IR,1702239152
429,hadibu,12.65,54.0333,77.02,70,55,12.3,YE,1702239152
430,argo,37.6333,22.7333,50.79,87,100,3.06,GR,1702239152
431,ekibastuz,51.6667,75.3667,-11.76,99,81,3.49,KZ,1702239152
432,inarajan village,13.2736,144.7484,80.74,92,40,13.22,GU,1702239152
433,novyy urengoy,66.0833,76.6333,-24.66,96,92,7.58,RU,1702239153
434,bako,5.7833,36.5667,68.16,62,9,4.0,ET,1702239153
435,al jawf,29.5,38.75,66.52,43,100,14.05,SA,1702239153
436,egersund,58.4513,5.9997,39.09,69,100,28.52,NO,1702239153
437,machico,32.7,-16.7667,71.01,89,75,2.3,PT,1702239153
438,vorkuta,67.5,64.0,-14.75,100,100,5.37,RU,1702239153
439,galle,6.0367,80.217,75.96,90,96,3.44,LK,1702239153
440,kota bharu,6.1333,102.2386,76.08,93,100,1.16,MY,1702239154
441,kabinda,-6.1333,24.4833,68.83,95,100,3.87,CD,1702239154
442,wainwright,52.839,-110.8572,26.26,66,61,8.7,CA,1702239154
443,laja,-37.2667,-72.7,89.89,16,100,0.11,CL,1702239107
444,ghat,24.9647,10.1728,58.1,62,100,12.44,LY,1702239154
445,gola gokarannath,28.0833,80.4667,55.38,36,1,4.0,IN,1702239154
446,mao,39.8885,4.2658,59.56,100,20,4.61,ES,1702239154
447,homer,59.6425,-151.5483,33.69,75,100,24.16,US,1702239155
448,kavieng,-2.5744,150.7967,81.97,78,100,11.07,PG,1702239155
449,mandan,46.8267,-100.8896,30.81,82,20,8.05,US,1702239155
450,heunghae,36.1125,129.3522,55.72,88,100,14.7,KR,1702239155
451,amahai,-3.3333,128.9167,79.07,83,96,5.12,ID,1702239155
452,mazarron,37.5992,-1.3149,60.15,62,29,4.34,ES,1702239155
453,bijie,27.3125,105.2942,50.63,87,100,5.77,CN,1702239155
454,kristiansund,63.1115,7.732,34.45,69,75,3.44,NO,1702239155
455,trogir,43.5125,16.2517,46.8,71,0,5.75,HR,1702239155
456,ponta delgada,37.7333,-25.6667,65.19,88,75,11.5,PT,1702239156
457,callao,-12.0667,-77.15,73.69,64,0,12.66,PE,1702238986
458,brockport,43.2137,-77.9392,44.24,77,100,1.01,US,1702239098
459,kijang,35.2442,129.2139,53.33,84,100,21.9,KR,1702239156
460,port macquarie,-31.4333,152.9167,67.89,82,4,8.75,AU,1702239104
461,nelson bay,-32.7167,152.15,72.0,85,2,5.01,AU,1702239156
462,ixtapa,20.7,-105.2,81.63,61,40,6.91,MX,1702239156
463,inhambane,-23.865,35.3833,79.43,91,20,10.54,MZ,1702239156
464,caruthersville,36.1931,-89.6556,46.38,66,4,4.0,US,1702239156
465,lucas,41.6501,-83.6666,39.94,74,100,9.22,US,1702239156
466,dordrecht,51.81,4.6736,53.08,92,94,15.01,NL,1702239157
467,tibati,6.4667,12.6333,77.05,26,0,3.94,CM,1702239157
468,labytnangi,66.6572,66.4183,-20.99,100,99,6.67,RU,1702239157
469,beledweyne,4.7358,45.2036,84.02,42,5,7.78,SO,1702239157
470,muroto-misakicho,33.2833,134.15,61.27,74,99,10.78,JP,1702239157
471,balaipungut,1.05,101.2833,74.5,98,100,1.16,ID,1702239158
472,brak,27.5496,14.2714,58.08,57,0,9.6,LY,1702238964
473,polyarnyy,69.1989,33.4478,12.29,85,99,19.77,RU,1702239158
474,kabo,7.6994,18.629,77.94,24,97,1.14,CF,1702239158
475,smithers,54.7804,-127.1743,23.32,93,75,3.44,CA,1702239015
476,fortaleza,-3.7227,-38.5247,82.53,74,20,12.66,BR,1702238959
477,chhatak,25.0333,91.6667,62.51,83,0,5.44,BD,1702239158
478,lamu,-2.2717,40.902,79.02,85,47,10.94,KE,1702239158
479,praya,14.9215,-23.5087,77.54,69,0,10.36,CV,1702239158
480,sao joao da boa vista,-21.9692,-46.7981,73.71,79,67,10.6,BR,1702239159
481,bukama,-9.2,25.85,71.76,95,100,1.68,CD,1702239159
482,kingaroy,-26.5333,151.8333,66.09,81,74,10.42,AU,1702239159
483,great falls,47.5002,-111.3008,46.85,48,0,25.32,US,1702239067
484,zuyevka,58.405,51.1335,-15.99,98,100,5.84,RU,1702239159
485,corni,47.65,26.5833,28.44,97,75,4.61,RO,1702239159
486,arteche,12.2645,125.4048,78.46,87,100,8.97,PH,1702239159
487,demopolis,32.5176,-87.8364,55.35,54,0,12.66,US,1702239159
488,kapoeta,4.7717,33.5903,85.01,33,19,6.49,SS,1702239159
489,puerto baquerizo moreno,-0.9,-89.6,83.39,65,20,13.8,EC,1702239147
490,charters towers,-20.1,146.2667,71.08,73,40,9.22,AU,1702239160
491,al ghayzah,16.2079,52.176,75.07,62,22,1.81,YE,1702239160
492,progreso,21.2833,-89.6667,86.11,77,100,14.14,MX,1702239160
493,tamandare,-8.7597,-35.1047,81.09,65,72,6.93,BR,1702239160
494,sittwe,20.15,92.9,68.11,79,3,9.4,MM,1702239160
495,weno,7.4515,151.8468,82.35,83,100,9.22,FM,1702239160
496,gainesville,29.6516,-82.3248,77.95,74,20,16.11,US,1702239086
497,mitu,1.1983,-70.1733,84.79,74,48,1.9,CO,1702239160
498,christchurch,-43.5333,172.6333,62.42,58,7,6.91,NZ,1702238989
499,nemuro,43.3236,145.575,29.77,53,21,12.08,JP,1702239160
500,wad medani,14.4012,33.5199,80.58,21,3,9.06,SD,1702239161
501,tanout,14.9709,8.8879,65.57,25,6,14.79,NE,1702239161
502,diego de almagro,-26.3667,-70.05,80.98,23,0,11.61,CL,1702238955
503,tannum sands,-23.9504,151.3693,75.09,73,75,10.36,AU,1702239161
504,naze,28.3667,129.4833,69.58,84,50,14.07,JP,1702239161
505,marsa alam,25.0757,34.8918,74.32,75,100,3.56,EG,1702239161
506,calingasta,-31.3308,-69.4078,86.14,24,2,15.37,AR,1702239161
507,el fuerte,26.4189,-108.6194,87.91,9,0,5.68,MX,1702239162
508,yuanping,38.7153,112.7575,22.24,95,100,1.23,CN,1702239162
509,itaueira,-7.6033,-43.0256,77.56,79,95,5.01,BR,1702239162
510,jijiga,9.35,42.8,60.53,51,0,7.36,ET,1702239162
511,viedma,-40.8135,-62.9967,89.13,14,0,6.87,AR,1702239027
512,jumla,29.2747,82.1838,35.4,27,0,5.28,NP,1702239162
513,sampit,-2.5333,112.95,74.64,99,100,2.04,ID,1702239162
514,shanhecun,44.7,127.2,0.48,86,85,2.55,CN,1702239163
515,independence,39.0911,-94.4155,45.72,47,0,7.0,US,1702239074
516,mpanda,-6.3655,31.0409,67.12,97,100,2.73,TZ,1702239163
517,antsiranana,-12.2787,49.2917,78.89,82,80,13.73,MG,1702239163
518,sinabang,2.4803,96.3801,79.07,83,99,2.19,ID,1702239163
519,nole,45.2412,7.5731,52.61,84,0,5.75,IT,1702239163
520,barguzin,53.6167,109.6167,-17.64,94,68,3.62,RU,1702239163
521,celestun,20.8667,-90.4,78.89,81,94,13.04,MX,1702239163
522,tell city,37.9514,-86.7678,38.25,72,100,8.05,US,1702239163
523,novo aripuana,-5.1206,-60.3797,92.03,48,100,2.55,BR,1702238946
524,duong dong,10.2167,103.9667,77.0,94,20,2.3,VN,1702239164
525,vila franca do campo,37.7167,-25.4333,64.89,99,100,10.31,PT,1702239164
526,afua,-0.1567,-50.3867,85.35,67,51,7.72,BR,1702239164
527,simanggang,1.2472,111.4528,73.24,99,100,1.95,MY,1702239164
528,grahamstown,-33.3042,26.5328,56.95,93,36,3.85,ZA,1702239164
529,san antonio de pale,-1.4014,5.6325,81.77,78,100,11.41,GQ,1702239164
530,colares,38.7992,-9.4469,63.75,96,75,8.99,PT,1702239149
531,knyaze-volkonskoye,48.4642,135.4567,-8.72,87,19,18.01,RU,1702239142
532,puri,19.8,85.85,63.12,63,0,4.74,IN,1702239164
533,beihai,21.4833,109.1,72.72,89,4,5.95,CN,1702239165
534,kirakira,-10.4544,161.9205,79.03,87,100,3.29,SB,1702239165
535,basse-terre,16.1667,-61.6667,74.59,88,75,17.27,GP,1702239165
536,thinadhoo,0.5333,72.9333,82.35,75,100,5.23,MV,1702239165
537,labuan,5.2767,115.2417,81.82,77,52,4.5,MY,1702239165
538,olyokminsk,60.3736,120.4264,-16.83,91,100,7.94,RU,1702239165
539,murzuq,25.9155,13.9184,61.57,58,100,14.99,LY,1702239165
540,ar ruways,24.1103,52.7306,72.93,61,12,6.87,AE,1702239165
541,grojec,51.8625,20.8676,36.21,87,100,10.11,PL,1702239165
542,miguel ahumada,30.6167,-106.5167,49.87,20,0,2.15,MX,1702239166
543,vereshchagino,58.0789,54.6557,-29.43,100,68,2.77,RU,1702239166
544,camana,-16.6228,-72.7111,72.05,68,29,7.2,PE,1702239166
545,maryborough,-25.5333,152.7,73.94,66,5,9.33,AU,1702239166
546,calama,-22.4667,-68.9333,77.86,11,11,18.84,CL,1702238953
547,libreville,0.3925,9.4537,80.62,89,20,4.61,GA,1702239166
548,dubbo,-32.25,148.6167,71.73,78,38,8.05,AU,1702239166
549,pampierstad,-27.7832,24.6877,65.89,74,100,8.75,ZA,1702239166
